id,Title,Artist,Lat,Long,Station 1,Station 1 Dist,Station 2,Station 2 Dist,Station 3,Station 3 Dist,Station 4,Station 4 Dist,Station 5,Station 5 Dist
0,Chinatown Heritage,"Wen-ti Tsen, Yuon Zuo",42.35169668236009,-71.0605710631534,D32015,0.1061793273419647,D32019,0.1908527865723288,D32043,0.28191275107422037,A32042,0.35811725082409873,A32010,0.4173418785466456
1,Untitled,"Vyal ""Vyal One"" Reyes",42.345023834047964,-71.06052905619565,C32035,0.200757463750988,C32025,0.23971313418218435,C32057,0.27368292233388297,C32009,0.2818246494723061,C32053,0.3006700632325572
2,Don’t Let Me Be Misunderstood,"Victor ""Marka27"" Quiñonez, Rob ""ProBlak"" Gibbs",42.345023834047964,-71.06052905619565,C32035,0.200757463750988,C32025,0.23971313418218435,C32057,0.27368292233388297,C32009,0.2818246494723061,C32053,0.3006700632325572
3,Untitled (Tobin School),"Victor ""Marka27"" Quiñonez, David ""Don Rimx"" Sepulveda",42.33310247231317,-71.0983383021578,B32063,0.24061186425179745,C32001,0.3369825080167955,B32033,0.3893727575132428,B32013,0.5026064111005186,B32059,0.5075392015066585
4,Souledad,"Victor ""Marka27"" Quiñonez",42.33754240652663,-71.07612459818394,C32006,0.2028585210517658,C32005,0.36236244184029304,D32059,0.39822503801754644,A32009,0.4251364211851676,C32056,0.4692094862592401
5,Back to the Essence,"Victor ""Marka27"" Quiñonez",42.327263490418844,-71.06971565982968,C32022,0.27529617758763575,C32015,0.5118331550471453,C32061,1.0443585838208018,B32026,1.1296883152014983,C32005,1.160975053763291
6,Love Thyself,"Victor ""Marka27"" Quiñonez",42.31302898537912,-71.07515123099425,B32029,0.4265028662845838,B32028,0.7429999530839048,B32022,0.8060448075678661,B32031,1.007134505525186,C32037,1.0460945546181355
7,Cranes In The Sky,"Victor ""Marka27"" Quiñonez",42.345023834047964,-71.06052905619565,C32035,0.200757463750988,C32025,0.23971313418218435,C32057,0.27368292233388297,C32009,0.2818246494723061,C32053,0.3006700632325572
8,Untitled,Upendo Taylor,42.345023834047964,-71.06052905619565,C32035,0.200757463750988,C32025,0.23971313418218435,C32057,0.27368292233388297,C32009,0.2818246494723061,C32053,0.3006700632325572
9,Black Love,"Tony ""PRONZY"" Perez",42.33204691212508,-71.08996914131734,B32059,0.20414896490206572,B32055,0.287409603794636,B32064,0.3051227123960209,C32001,0.43931725936918403,B32002,0.4940882823537381
10,Sunrise Over Albany Street,Timothy McCool,42.33400657014695,-71.0727591021576,C32061,0.43001653073035684,C32006,0.511771092385834,C32005,0.5314979295082236,C32093,0.62731671440616,D32059,0.6606021933777777
11,Nevertheless,Thy Doan,42.345023834047964,-71.06052905619565,C32035,0.200757463750988,C32025,0.23971313418218435,C32057,0.27368292233388297,C32009,0.2818246494723061,C32053,0.3006700632325572
12,Community Mural,South Boston en Acción,42.33047595210843,-71.04902381377835,C32052,0.13281108504390926,C32016,0.6511549732139625,C32029,0.9794131823635267,C32017,1.0277243039633082,C32013,1.1398720923060885
13,Untitled,"Soraya ""Indie184"" Marquez",42.345023834047964,-71.06052905619565,C32035,0.200757463750988,C32025,0.23971313418218435,C32057,0.27368292233388297,C32009,0.2818246494723061,C32053,0.3006700632325572
14,Rising Tides,Sophy Tuttle,42.368427,-71.038637,A32030,0.10480512895250292,A32031,0.13947319872152705,A32057,0.33465149369129943,A32049,0.34676522511863805,A32044,0.4413196034266339
15,Whale Song,Sophy Tuttle,42.27521958469448,-71.08241345889993,C32103,0.4293272785424926,C32050,0.9258288790843193,C32044,0.935536324907045,C32045,1.2323217125061796,Z32999,1.370690869627268
16,Interconnected,Sophy Tuttle,42.36377259161841,-71.12582411828986,A32011,0.10123993604832758,A32019,0.22670908876590223,A32040,0.44781969409280636,A32052,0.49029854630606884,A32006,0.6242010818527859
17,Untitled (City Hall),Sophia Ainslie,42.36049318452591,-71.05760676406486,D32009,0.010884381926564273,B32008,0.1747593680617974,B32032,0.19499378785198027,D32057,0.1956048709430893,D32010,0.28701459573153215
18,Protect What You Love,"Sneha ""IMAGINE"" Shrestha",42.36424862943932,-71.03315954373655,A32050,0.3620618572383758,A32044,0.38830871134579703,A32057,0.6093779097678684,A32049,0.730864117831488,A32030,0.7468787179989178
19,Surya,"Sneha ""IMAGINE"" Shrestha",42.345023834047964,-71.06052905619565,C32035,0.200757463750988,C32025,0.23971313418218435,C32057,0.27368292233388297,C32009,0.2818246494723061,C32053,0.3006700632325572
20,Rise,Silvia López Chavez,42.36424862943932,-71.03315954373656,A32050,0.3620618572384643,A32044,0.3883087113461498,A32057,0.6093779097671619,A32049,0.7308641178318424,A32030,0.7468787179982102
21,Up and Under,Silvia López Chavez,42.345023834047964,-71.06052905619565,C32035,0.200757463750988,C32025,0.23971313418218435,C32057,0.27368292233388297,C32009,0.2818246494723061,C32053,0.3006700632325572
22,Caffe Ducali,Silvia López Chavez,42.36761172841099,-71.05797185396935,A32053,0.33867005349516155,D32021,0.5078937079683373,D32010,0.5558732722861132,A32025,0.5611891231160272,D32022,0.5674919684666132
23,JOY,Silvia López Chavez,42.33730319294508,-71.08944273099347,B32002,0.16808012861205848,B32062,0.22855494426073208,Z32997,0.2924461201786157,B32064,0.3738275547842788,B32059,0.5426668327896833
24,999 Cranes,Silvia López Chavez,42.33599758388031,-71.09058062400334,B32002,0.2156129568134972,B32064,0.3114682150023043,Z32997,0.32336647125808554,B32062,0.3559922840926811,B32059,0.3725685941405068
25,Patterned Behavior,Silvia López Chavez,42.351788089834955,-71.09275276250582,B32037,0.4681331555358122,B32010,0.49009647260513534,B32018,0.6919327870323638,D32032,0.693045891963169,B32058,0.7854424387508057
26,Rainbow Swag,Sharif Muhammad,42.30590172362457,-71.1098545846916,D32040,0.19361142567984974,D32052,0.4829693854207516,E32005,0.5593575053406508,E32001,0.577865109411748,E32010,0.6611653294129515
27,Untitled (Madison Park),"Rob ""Problak"" Gibbs, Genaro ""GoFive"" Ortega, James ""Ras Terms"" Monk, Sneha ""IMAGINE"" Shrestha",42.33204691212508,-71.08996914131734,B32059,0.20414896490206572,B32055,0.287409603794636,B32064,0.3051227123960209,C32001,0.43931725936918403,B32002,0.4940882823537381
28,Roxbury Love Story,"Rob ""Problak"" Gibbs, Genaro ""GoFive"" Ortega ",42.33393500807736,-71.08188804448588,B32026,0.13659072184848306,D32059,0.24592781460115937,C32005,0.26813705433231905,D32061,0.4101850861360596,B32064,0.4779656218690385
29,Breathe Life 2,"Rob ""Problak"" Gibbs",42.33204691212508,-71.08996914131735,B32059,0.2041489649010058,B32055,0.2874096037946382,B32064,0.3051227123970802,C32001,0.43931725936759386,B32002,0.4940882823540915
30,Breathe Life 3,"Rob ""Problak"" Gibbs",42.33858155918451,-71.0815956309934,C32056,0.018380824571026196,D32061,0.13493126167911063,C32004,0.2503198037657416,D32059,0.31990008123981184,C32063,0.3411135466237941
31,Afro Futurism / Breathe Life 1,"Rob ""Problak"" Gibbs",42.31348792040496,-71.07948085797891,B32022,0.5444559055362196,B32028,0.6313518442790674,B32029,0.6953983324022786,C32037,1.0398136087599759,B32027,1.0953769342106985
32,In Our Home,Rixy Fernandez,42.30011724517227,-71.06037463099473,C32041,0.059688515261211786,C32108,0.6405882026980876,E32009,0.9144240048450378,B32031,0.944182556470845,C32066,0.9503989270168677
33,Rita's Spotlight,Rixy,42.35330933785812,-71.13801778866463,A32001,0.05813272928710125,A32045,0.47038708411578056,D32034,0.5730167094637301,A32017,0.6277193757534106,D32035,0.7669395143622671
34,Rules of Engagement,"Ricardo ""Deme5"" Gomez",42.32848773078224,-71.08882986049885,B32055,0.1540460786006413,B32017,0.4359722237648046,B32059,0.5593046137496167,C32001,0.6023786018015113,B32064,0.6419879918123516
35,Pimentel Market Mural,"Ricardo ""Deme5"" Gomez",42.32257306990827,-71.10652776046021,E32003,0.2875259773774538,E32012,0.4163553807164228,E32006,0.5279325047422982,D32041,0.6476417969565668,E32007,0.6645825584493719
36,Where We Belong 歸屬 歸宿,Ponnapa Prakkamakul with Asian CDC's A-VOYCE youth program,42.35249950171367,-71.0606104855313,D32015,0.163190083534536,D32019,0.17072526705323499,A32042,0.337059797772399,D32014,0.3559891365650671,D32043,0.3627720126698868
37,Faces of Allston,Pete Cosmos,42.364275706935295,-71.1327236882984,A32019,0.3561710932988248,A32005,0.5140324399938416,A32040,0.5632787679779605,A32011,0.672300937907018,A32052,0.8160167146134626
38,Holy Mackerel,Percy Fortini-Wright,42.345023834047964,-71.06052905619565,C32035,0.200757463750988,C32025,0.23971313418218435,C32057,0.27368292233388297,C32009,0.2818246494723061,C32053,0.3006700632325572
39,No Strings Detached,Paul Goodnight and Larry Pierce,42.31267605809196,-71.08039450679624,B32028,0.5314020035313505,B32022,0.6012174389311287,B32029,0.707583907155146,C32037,0.9538353746855521,C32027,1.0264994427754874
40,Augment,Nick Cave,42.31642831225891,-71.06565858681472,B32031,0.9536492870268887,B32029,0.9677006752976841,C32064,1.0907475040263679,C32022,1.1318722469603602,C32033,1.1657151136562094
41,Roxbury Rhapsody,Napoleon Jones-Henderson,42.330278710662036,-71.08384125982954,B32017,0.048441688747822655,B32026,0.3563120401122614,B32055,0.5284713830762373,B32064,0.5384835227988498,C32005,0.6658987262123548
42,Together,Mz. Icar,42.33242601738714,-71.06918001750128,C32061,0.46937253531302736,C32022,0.6839707448663258,C32093,0.7532523500179132,C32006,0.7860578965631521,C32005,0.8649969285646819
43,Youth Lead the Change: Rise Up from Your Roots,Mel Mandel,42.28976879948183,-71.08352056067257,C32110,0.5342722568644137,C32043,0.6112927100055484,C32092,0.7438099479650934,C32094,0.9522554591381504,C32038,0.9681707348032604
44,Black Inventors,"Mayor's Mural Crew, Thomas Burns",42.30907628385532,-71.08060931728359,B32028,0.13259517936837803,C32037,0.5602357023174156,B32029,0.6380007572304588,C32111,0.6804248362282681,C32030,0.7352139578434453
45,Sports Heros,"Mayor's Mural Crew, Marshall Dackert",42.278621,-71.163887,C32087,0.1321227965696014,C32086,0.7138362293346959,C32085,1.214536456968118,C32059,2.3993956791341144,C32046,3.0644771875566104
46,Little Saigon / Viet Dorchester,"Mayor's Mural Crew, Jon Tran",42.30218180515609,-71.06007636754777,C32041,0.2875481032574614,C32108,0.5074719289949519,B32031,0.7548836815452723,C32033,1.0647663437144992,E32009,1.1304870932511117
47,"Nieli’Ka (Ojo de Dios, or Eye of God)","Mayor's Mural Crew, Heidi Schork, Tom Wiklund",42.312218,-71.113946,E32001,0.3721428445055036,E32005,0.5741808368621811,D32052,0.7008599165358044,D32040,0.8159459377710238,D32041,0.9491475811559031
48,Know Your History,"Mayor's Mural Crew, Heidi Schork",42.26886885758552,-71.09439967179505,C32045,0.1243055015371956,Z32999,0.28158141609577475,C32044,0.6413191298282486,C32050,0.951134753648906,C32103,1.5998617951506953
49,"Melnea Cass, Frieda Garcia, Judy Norsigian and Kip Tiernan",Mayor's Mural Crew and Heidi Schork,42.33299558778622,-71.07872722286967,B32026,0.20459929602777854,C32005,0.23504325877882748,D32059,0.3447448879696081,B32017,0.5495410608735506,D32061,0.6002432347205708
50,Nature Walk / Flora and Fauna,Mayor's Mural Crew and Heidi Schork,42.28673275324676,-71.10796693146862,C32105,0.1795157942022764,C32094,1.0952569148480005,C32079,1.1464303235594664,C32089,1.2309608633252676,C32048,1.2746116337938367
51,Frederick Douglass Square Mural,Mayor's Mural Crew and Heidi Schork,42.337186,-71.083750,D32061,0.10877927201049377,C32056,0.2189902834140858,D32059,0.31498232454239106,B32002,0.3644004575190873,C32004,0.44171603549290994
52,History of Fort Hill II,Mayor's Mural Crew and Gregg Bernstein,42.327372850233274,-71.09654546780847,C32001,0.4382370862484824,E32012,0.5705457051182993,B32055,0.5753956791647082,E32006,0.5755691469390555,B32059,0.707703276861102
53,"For Giving, For Getting",Matthew Zaremba,42.345023834047964,-71.06052905619565,C32035,0.200757463750988,C32025,0.23971313418218435,C32057,0.27368292233388297,C32009,0.2818246494723061,C32053,0.3006700632325572
54,Hard in the Paint,Maria Molteni,42.29225207015424,-71.08020437517443,C32110,0.18410116047288125,C32043,0.6256836642712684,C32038,0.7246903895861339,C32055,0.9260693853839338,C32099,1.0884617366407392
55,Boston Strong,Marcelo Ment,42.29151678132504,-71.06257494633854,C32066,0.022353528439839166,E32009,0.304558375884851,C32062,0.6594809800263656,C32038,0.7725786428193506,C32055,0.841846143705451
56,Mystery Map,Liz LaManche,42.37937708522687,-71.02974680215615,A32051,0.16610090954691809,A32032,0.6359955173884626,A32041,0.8914429445627774,A32049,1.089346005610607,A32036,1.147143330874402
57,Play and Yay!,"Lisa Jeanne Graf, Bea Graf",42.31575228046447,-71.08811437332238,B32027,0.3407163065445527,B32022,0.5244463563446855,B32023,0.682763331616567,C32027,0.74336470162273,C32102,0.7600238671154145
58,Untitled (Tobin School),Lena McCarthy,42.33310247231317,-71.0983383021577,B32063,0.2406118642598375,C32001,0.3369825080100819,B32033,0.38937275751430495,B32013,0.5026064111082933,B32059,0.5075392014983976
59,Greetings from Columbia Point,Laura DeDonato Wiatt,42.31801890906809,-71.04318710215821,C32090,0.20285062143398586,C32013,0.7075626448034447,C32014,0.8512019185046085,C32064,0.894393230100172,C32033,1.2079513228568377
60,"Puzzle Me, Allston-Brighton!",Kit Collins,42.362729230979774,-71.13077090370788,A32019,0.27470956973701355,A32040,0.3296132762408739,A32011,0.5201315115110963,A32005,0.5907419101045107,A32052,0.7989020110175528
61,The Hidden Dragon,Kenji Chai,42.33204691212508,-71.08996914131735,B32059,0.2041489649010058,B32055,0.2874096037946382,B32064,0.3051227123970802,C32001,0.43931725936759386,B32002,0.4940882823540915
62,Faces of Codman Square,K Jameel Parker,42.291220370836754,-71.07210350703862,C32038,0.10157614806114627,C32055,0.436428789764952,C32110,0.49735368281852427,E32009,0.5568401959757823,C32066,0.7881019790829797
63,A Message to the Future,"Julia Csekö, in collaboration with Eddie Maisonet ",42.30590172362457,-71.1098545846916,D32040,0.19361142567984974,D32052,0.4829693854207516,E32005,0.5593575053406508,E32001,0.577865109411748,E32010,0.6611653294129515
64,The Calling,"Julia ""Julz"" Roth and Cedric ""Vise 1"" Douglas",42.36424862943932,-71.03315954373655,A32050,0.3620618572383758,A32044,0.38830871134579703,A32057,0.6093779097678684,A32049,0.730864117831488,A32030,0.7468787179989178
65,Fight the Rise,Josie Morway,42.363954775302574,-71.03234706886144,A32050,0.2954113533190179,A32044,0.42879238283073356,A32057,0.682647425723148,A32049,0.7825271595189262,A32030,0.8183377660129941
66,Allumination,Jessie Unterhalter and Katey Truhn,42.3643035913187,-71.13338494173396,A32019,0.41039673049318465,A32005,0.47314519617558637,A32040,0.6005839749116103,A32011,0.7268274624578979,A32052,0.8618434749311448
67,Untitled,"Jeremy “Sobek” Harrison, EYEVAN",42.30030546836266,-71.06022732772263,C32041,0.08381898110608277,C32108,0.6181965916761871,B32031,0.9304016268066022,E32009,0.9385991943967616,C32066,0.9732707758583904
68,Turmoil,Jeremy “Sobek” Harrison,42.33201764888748,-71.08247950182269,B32026,0.13798313850047877,B32017,0.26721722150472305,C32005,0.44453545077772166,D32059,0.4590724235393426,B32064,0.4923321448853128
69,Untitled,Iker Muro,42.345023834047964,-71.06052905619565,C32035,0.200757463750988,C32025,0.23971313418218435,C32057,0.27368292233388297,C32009,0.2818246494723061,C32053,0.3006700632325572
70,Married in Boston,"Heidi Schork, Michael Evans",42.36049318452591,-71.05760676406486,D32009,0.010884381926564273,B32008,0.1747593680617974,B32032,0.19499378785198027,D32057,0.1956048709430893,D32010,0.28701459573153215
71,Snow Day,"Heidi Schork, Mayor's Mural Crew",42.36049318452591,-71.05760676406486,D32009,0.010884381926564273,B32008,0.1747593680617974,B32032,0.19499378785198027,D32057,0.1956048709430893,D32010,0.28701459573153215
72,Bird and Butterfly 1,"Heidi Schork, Mayor's Mural Crew",42.2921791124042,-71.06530212788618,E32009,0.08990182797575165,C32066,0.2309891413083277,C32038,0.5742489502828092,C32055,0.7182859378476975,C32062,0.7266754434923349
73,Bird and Butterfly 2,"Heidi Schork, Mayor's Mural Crew",42.2921791124042,-71.06530212788618,E32009,0.08990182797575165,C32066,0.2309891413083277,C32038,0.5742489502828092,C32055,0.7182859378476975,C32062,0.7266754434923349
74,Arnold Arboretum Tunnel Flowers,"Heidi Schork, Mayor's Mural Crew",42.296060818025595,-71.1202319206619,C32089,0.3479989997736885,C32048,0.38538049710998723,E32010,0.7315079543449543,D32052,1.1701341474139024,C32047,1.175492241314052
75,Don't Forget to Smile - Gentle Dental,"Heidi Schork, Mayor's Mural Crew",42.31444311628083,-71.11385761565064,E32001,0.612495416496583,E32005,0.6876610493469174,D32041,0.8305367946519241,E32003,0.8781383032132628,D32052,0.9451923987100816
76,Flowers at Lopez Florist,"Heidi Schork, Mayor's Mural Crew",42.284422159164926,-71.05525181534355,C32040,0.16775813735207984,C23109,0.6738096125709464,C32062,0.746504827490753,C32066,1.0105309187405451,E32009,1.280646668136198
77,Bodega Kitty,"Heidi Schork, Mayor's Mural Crew",42.293103113199656,-71.12150105983082,C32048,0.05471493055118339,C32089,0.559734390187321,C32047,0.8454308740899112,C32046,0.9357255031255521,E32010,1.0545890983779085
78,Birch Trees,"Heidi Schork, Mayor's Mural Crew",42.28711571947458,-71.1300781886669,C32046,0.1786827937201282,C32047,0.1917543270987977,C32059,0.5545418140787581,C32048,0.9574886366305954,C32079,1.4270524354002991
79,Butterflies and Plants 1,"Heidi Schork, Mayor's Mural Crew",42.32172286691537,-71.1109450444863,E32003,0.09108022728575617,E32007,0.6532742205941726,D32041,0.7567163068062238,E32012,0.789063577254273,E32006,0.9006153016262628
80,Butterflies and Plants 2,"Heidi Schork, Mayor's Mural Crew",42.32172286691537,-71.1109450444863,E32003,0.09108022728575617,E32007,0.6532742205941726,D32041,0.7567163068062238,E32012,0.789063577254273,E32006,0.9006153016262628
81,To Immigrants with Love: East Boston 1,"Heidi Schork, Mayor's Mural Crew",42.37182948485985,-71.03866397146925,A32036,0.2545271351525403,A32031,0.2624784412704467,A32049,0.28920535903756067,A32030,0.3440878188384238,A32041,0.4043601189893574
82,To Immigrants with Love: East Boston 2,"Heidi Schork, Mayor's Mural Crew",42.37182948485985,-71.03866397146925,A32036,0.2545271351525403,A32031,0.2624784412704467,A32049,0.28920535903756067,A32030,0.3440878188384238,A32041,0.4043601189893574
83,To Immigrants with Love: Roslindale,"Heidi Schork, Mayor's Mural Crew",42.280421760608796,-71.11917800215947,C32079,0.26079485368848787,C32105,0.9809132733334164,C32046,0.9908573889747434,C32047,1.0227612003226918,C32106,1.3686936218558954
84,To Immigrants with Love: Grandmothers,"Heidi Schork, Mayor's Mural Crew",42.368314,-71.038761,A32030,0.10241414227537941,A32031,0.1465304482093368,A32057,0.3190439804659991,A32049,0.36282192377315187,A32044,0.4494362004848552
85,Become a Big Sister,"Heidi Schork, Mayor's Mural Crew",42.31933423826136,-71.0775419444864,B32022,0.4344628051498876,C32015,0.6903163218907907,B32029,1.1499298841076662,B32023,1.1547776285624527,C32022,1.2165304592271646
86,Roxbury Center for the Performing Arts,"Heidi Schork, Mayor's Mural Crew",42.289329013897174,-71.0901211886668,C32092,0.375290575406696,C32094,0.40584140893490667,C32043,0.6342444320406495,C32099,0.866746864130452,C32110,1.053244610129779
87,Ray Bolger as the Scarecrow,"Heidi Schork, Mayor's Mural Crew",42.29114783628344,-71.06273553099496,C32066,0.06477047080026865,E32009,0.3168970703641727,C32062,0.6167201584712707,C32038,0.7535204565693812,C32055,0.8087518332666678
88,Literary District Alley 1,"Heidi Schork, Mayor's Mural Crew",42.35532689062837,-71.06169308866464,D32014,0.1417161451832373,B32056,0.15069175063811582,D32019,0.3341434259763559,B32061,0.3511168765280342,D32015,0.48092302527197195
89,Literary District Alley 2,"Heidi Schork, Mayor's Mural Crew",42.35532689062837,-71.06169308866464,D32014,0.1417161451832373,B32056,0.15069175063811582,D32019,0.3341434259763559,B32061,0.3511168765280342,D32015,0.48092302527197195
90,Literary District Alley 3,"Heidi Schork, Mayor's Mural Crew",42.35532689062837,-71.06169308866464,D32014,0.1417161451832373,B32056,0.15069175063811582,D32019,0.3341434259763559,B32061,0.3511168765280342,D32015,0.48092302527197195
91,Dos Montanas,"Heidi Schork, Mayor's Mural Crew",42.267006709695856,-71.09487464448812,C32045,0.1422983590080055,Z32999,0.3940295192377828,C32044,0.8510442437934127,C32050,1.1610010187955884,E32014,1.6459766386600723
92,Taste of Home / Gou Lakay Mwen / Sabor de Casa 1,"Heidi Schork, Mayor's Mural Crew",42.26843976652813,-71.0945668175034,C32045,0.09696578215214445,Z32999,0.2943437319475685,C32044,0.6900650153592709,C32050,0.9999751958203735,C32103,1.6427821884623421
93,Taste of Home / Gou Lakay Mwen / Sabor de Casa 2,"Heidi Schork, Mayor's Mural Crew",42.26843976652813,-71.0945668175034,C32045,0.09696578215214445,Z32999,0.2943437319475685,C32044,0.6900650153592709,C32050,0.9999751958203735,C32103,1.6427821884623421
94,Taste of Home / Gou Lakay Mwen / Sabor de Casa 3,"Heidi Schork, Mayor's Mural Crew",42.26843976652813,-71.0945668175034,C32045,0.09696578215214445,Z32999,0.2943437319475685,C32044,0.6900650153592709,C32050,0.9999751958203735,C32103,1.6427821884623421
95,My Brother's Keeper,"Heidi Schork, Mayor's Mural Crew",42.31845534047725,-71.08155600215821,B32022,0.09685313247115837,B32023,0.8658916827072487,B32027,0.8737308245137713,C32015,0.9192470557094774,B32028,1.1724277176427609
96,Animal Care and Control Lobby,"Heidi Schork, Mayor's Mural Crew",42.295085384916064,-71.12180324177173,C32048,0.27338575372259183,C32089,0.4898721845167498,E32010,0.8991841271276596,C32047,1.0164483854765083,C32046,1.108852004575824
97,BCLA students,"Heidi Schork, Mayor's Mural Crew",42.263257051998046,-71.11779271904066,E32014,0.30436849184181974,C32106,0.5510403353812194,E32013,0.8123405376104034,C32104,1.01205060854606,C32079,1.7294250787478473
98,Choice,Greg Lamarche,42.345023834047964,-71.06052905619565,C32035,0.200757463750988,C32025,0.23971313418218435,C32057,0.27368292233388297,C32009,0.2818246494723061,C32053,0.3006700632325572
99,Tiger Style,"Genaro ""GoFive"" Ortega, Rob ""Problak"" Gibbs, Brandalizm, Sneha ""IMAGINE"" Shrestha, Luis “Take1” Taforo",42.33129710809374,-71.08836793099361,B32055,0.25152700078715695,B32064,0.3278379717131725,B32059,0.35973529015466676,B32017,0.40470506733602873,B32002,0.5504520905022874
100,Mel King,"Genaro ""GoFive"" Ortega",42.33204691212508,-71.08996914131735,B32059,0.2041489649010058,B32055,0.2874096037946382,B32064,0.3051227123970802,C32001,0.43931725936759386,B32002,0.4940882823540915
101,Reflect the Times,"Genaro ""GoFive"" Ortega",42.34713488327067,-71.06461487147017,D32048,0.17615383670421114,C32025,0.18063325979468287,C32057,0.22254042683742656,D32043,0.32821933243465023,C32035,0.4233618893424685
102,Sacred Journey,"Genaro ""GoFive"" Ortega",42.345023834047964,-71.06052905619565,C32035,0.200757463750988,C32025,0.23971313418218435,C32057,0.27368292233388297,C32009,0.2818246494723061,C32053,0.3006700632325572
103,Untitled,"Fernando Ayala Cuellar, Heidi Schork, Mayor's Mural Crew",42.30571643388116,-71.1144992868151,D32052,0.10622884040877585,E32001,0.3785930520473562,E32010,0.532850496275554,D32040,0.5705378912715448,E32005,0.8000476815914092
104,Connected Community,"Faduma Sharifnoor, LeEr Li, Shurel Codrington, Yousra Ali, Iiman Abdirahman",42.346314651976066,-71.0688975733213,C32000,0.11835677437262207,D32048,0.3682348393447141,C32057,0.43423614237663616,D32049,0.46147008182056237,C32025,0.4727909189667152
105,Untitled,Ewok,42.345023834047964,-71.06052905619565,C32035,0.200757463750988,C32025,0.23971313418218435,C32057,0.27368292233388297,C32009,0.2818246494723061,C32053,0.3006700632325572
106,Untitled,"Douglas ""Hoxxoh"" Hoekzema",42.345023834047964,-71.06052905619565,C32035,0.200757463750988,C32025,0.23971313418218435,C32057,0.27368292233388297,C32009,0.2818246494723061,C32053,0.3006700632325572
107,Dreaming Isn’t So Concrete,Destiny Palmer,42.27521958469448,-71.08241345889993,C32103,0.4293272785424926,C32050,0.9258288790843193,C32044,0.935536324907045,C32045,1.2323217125061796,Z32999,1.370690869627268
108,Untitled,"David ""Don Rimx"" Sepulveda, Victor ""Marka27"" Quiñonez, and Rob ""ProBlak"" Gibbs",42.345023834047964,-71.06052905619565,C32035,0.200757463750988,C32025,0.23971313418218435,C32057,0.27368292233388297,C32009,0.2818246494723061,C32053,0.3006700632325572
109,Sangre Indígena,"David ""Don Rimx"" Sepulveda",42.33204691212508,-71.08996914131734,B32059,0.20414896490206572,B32055,0.287409603794636,B32064,0.3051227123960209,C32001,0.43931725936918403,B32002,0.4940882823537381
110,Powerful Knowledge,"David ""Don Rimx"" Sepulveda",42.30817969454832,-71.0812369309944,B32028,0.038070332661517145,C32037,0.47769263546449253,C32111,0.605290087379308,C32030,0.6234145751570723,B32029,0.7045544920550774
111,Untitled,Dana Woulfe,42.345023834047964,-71.06052905619565,C32035,0.200757463750988,C32025,0.23971313418218435,C32057,0.27368292233388297,C32009,0.2818246494723061,C32053,0.3006700632325572
112,Doujans D'al Hirhoal,Cyrille Conan,42.3422517803403,-71.14101853125612,D32054,0.6248106427941619,D32034,0.6838064617154396,D32033,0.9070177457735626,A32017,1.0314086861020897,D32028,1.0652420847926243
113,Dino City 1,"Curtis “Curtistic"" Williams",42.33204691212508,-71.08996914131734,B32059,0.20414896490206572,B32055,0.287409603794636,B32064,0.3051227123960209,C32001,0.43931725936918403,B32002,0.4940882823537381
114,Make Your Own Path,Chris Piascik,42.27521958469448,-71.08241345889992,C32103,0.42932727854284675,C32050,0.9258288790850263,C32044,0.9355363249081053,C32045,1.2323217125086532,Z32999,1.370690869629036
115,Untitled,Cey Adams,42.345023834047964,-71.06052905619565,C32035,0.200757463750988,C32025,0.23971313418218435,C32057,0.27368292233388297,C32009,0.2818246494723061,C32053,0.3006700632325572
116,Birds Eye View,"Cedric ""Vise 1"" Douglas",42.27521958469448,-71.08241345889991,C32103,0.42932727854214014,C32050,0.9258288790864398,C32044,0.9355363249092535,C32045,1.2323217125090067,Z32999,1.3706908696290367
117,Faces of Dudley: Old and New,"Caleb Neelon, Victor ""Marka27"" Quiñonez",42.32933241304873,-71.08510710215782,B32017,0.11698432664399268,B32055,0.4165758864020471,B32026,0.5036127718186394,B32064,0.5810348938649313,B32059,0.7031703462186747
118,Untitled (Tobin School),"Caleb Neelon, Sneha ""IMAGINE"" Shrestha",42.33310247231317,-71.0983383021577,B32063,0.2406118642598375,C32001,0.3369825080100819,B32033,0.38937275751430495,B32013,0.5026064111082933,B32059,0.5075392014983976
119,Tale of an Ancient Vase,Bryan Beyung,42.35084807181205,-71.06089858866471,D32015,0.1382319022575909,D32043,0.18639106741562927,D32019,0.22711765370575795,A32042,0.4264253707009551,D32011,0.44536825272808317
120,Hope and Resistance,Artists for Humanity,42.372059,-71.034045,A32049,0.20779554593690186,A32032,0.2507418303540892,A32044,0.48293085254691454,A32031,0.5247425932508604,A32041,0.5666317611963585
121,Love is the Question and the Answer,"Ari Hauben, Envite Design, The Scholars Brigade",42.34447505568874,-71.07347964448554,C32060,0.22233555617430265,C32077,0.2491436789353921,C32000,0.3342672134595652,A32009,0.44597093862773834,C32003,0.4740020629116277
122,Untitled,Andrew Balboa,42.345023834047964,-71.06052905619565,C32035,0.200757463750988,C32025,0.23971313418218435,C32057,0.27368292233388297,C32009,0.2818246494723061,C32053,0.3006700632325572
123,Strand Theatre,"Alvin ""Acóma"" Colón",42.31614771293097,-71.066056888666,B32029,0.9229363140345885,B32031,0.9246703256878004,C32064,1.1334773581234707,C32022,1.1614933501402063,C32033,1.176543082032852
124,Upham's Corner,"Alvin ""Acóma"" Colón",42.31650391212403,-71.06545327332236,B32031,0.9614089744042801,B32029,0.984785820607115,C32064,1.071872248559223,C32022,1.1246597099996738,C32033,1.156418279009351
125,Community Grows Here,"Alex Lebron, Hamdi Hassan, Kiwi Li, Tristan Obsequio, Vivian Liang, Yasmin Ali",42.34607790285362,-71.06915995767177,C32000,0.08495324515358145,D32048,0.4019544295742309,C32057,0.4486863522969879,D32049,0.4694982446280487,C32025,0.4925664459683774
126,JUSTICE / PEACE,Alex Cook with youth from the Boston Project Ministries,42.288519199253955,-71.07643028636886,C32038,0.43133096858752085,C32110,0.43363903262171105,C32055,0.4571857327811504,E32009,1.0072229273525908,C32062,1.061209159411358
127,Welcome to Jackson Square,Alex Cook with local volunteers,42.32262035804185,-71.10017249298535,E32006,0.03461979756383402,E32012,0.22683711402012205,E32011,0.4816699024149037,D32041,0.7172493928249225,B32023,0.7462668851971499
128,You Are Loved Mural Series,Alex Cook,42.33242601738714,-71.06918001750128,C32061,0.46937253531302736,C32022,0.6839707448663258,C32093,0.7532523500179132,C32006,0.7860578965631521,C32005,0.8649969285646819
129,You Are Loved / Eres Amado,Alex Cook,42.28955143881392,-71.07663589613739,C32110,0.319521090735795,C32038,0.4076894691195718,C32055,0.516555013594543,E32009,0.9725063399460295,C32043,1.0289381504082507
130,Love Forest,Alex Cook,42.337612459694945,-71.08246502890621,D32061,0.007317499474283524,C32056,0.11116400315648833,D32059,0.26072554923021385,C32004,0.3646749768196688,C32005,0.39714955071388497
131,Joy Tree,Alex Cook,42.28630338998537,-71.12993002472005,C32046,0.14225139146713858,C32047,0.19874598139375046,C32059,0.560152804944336,C32048,1.0091764812655721,C32079,1.3607744828670907
132,Animal Pile,Alex Cook,42.29267931522032,-71.12244245413457,C32048,0.10285616283202519,C32089,0.6502539929829967,C32047,0.7614766386767422,C32046,0.8525820849432767,E32010,1.1379973821561993
133,2 Giants,Alex Cook,42.335771194064606,-71.03541710003515,C32017,0.2763455817818063,C32091,0.7617764255518911,C32016,0.8912923460588579,C32051,0.9019641563044201,C32023,0.9653630368517084
134,The Beloved Community,Alex Cook,42.31808526222075,-71.07016920003515,C32015,0.9114889233011814,B32029,0.9720777559403728,C32022,0.9929413378060584,B32022,1.011082151668101,B32031,1.210433441818158
135,Love Your Neighbor,Alex Cook,42.28837762651193,-71.07682665770693,C32110,0.44055027109204387,C32038,0.4675838940524206,C32055,0.4847407424614365,E32009,1.0434405892547889,C32062,1.0880705978387368
136,Beholding the Holy City (Father and Daughter Emerging from the Forest),Alex Cook,42.28828967921538,-71.07709872887105,C32110,0.44592773335165975,C32038,0.49199634339386866,C32055,0.5045026382920591,E32009,1.0678090182726756,C32043,1.0819207712467849
137,Starr Lane Landscape,Alex Cook,42.313140374687976,-71.11411952887104,E32001,0.46659317395632094,E32005,0.6271116510220239,D32052,0.7988996994655826,D32040,0.9058354495388816,D32041,0.9088893430986552
138,Untitled,Alex Cook,42.29001046240485,-71.07489886442673,C32038,0.25758247632365605,C32110,0.35525192903947467,C32055,0.42918812660066297,E32009,0.8206937331474337,C32062,1.0086627253077032
139,She Sees More Than The World Will Show Her,Alex Cook,42.33585029634547,-71.08057177943742,D32059,0.015682689767654027,C32005,0.15148389177022387,D32061,0.25327299886904014,C32056,0.3012098649609075,B32026,0.340867676946631
140,Unity,Alex Cook,42.32407125003257,-71.10118380003516,E32012,0.06497199179882562,E32006,0.1530376490000475,E32011,0.6597961540711185,E32003,0.7582441367513182,D32041,0.8319076836388493
